[{"architects": "James & Associates", "category": "residence hall", "floors": "13", "id": "BL301", "lng": -86.5104588, "bld_code": "", "address": "150 N Rose Ave", "lat": 39.16692372, "year": 1965, "description": null, "name": "Willkie Quadrangle (A)"}, {"architects": "Edward D. James", "category": "residence hall", "floors": "04", "id": "BL304", "lng": -86.50993366, "bld_code": "MQ", "address": "1930 E 7th St", "lat": 39.16784357, "year": 1961, "description": null, "name": "Mason Hall"}, {"architects": "James & Associates", "category": "residence hall & academic", "floors": "17", "id": "BL313", "lng": -86.50862246, "bld_code": "EG", "address": "1900 & 1910 E 10th St", "lat": 39.17090197, "year": 1968, "description": null, "name": "Eigenmann Hall"}, {"architects": null, "category": "", "floors": "01", "id": "BL313D", "lng": -86.50929695, "bld_code": "EC", "address": "1901 E 10th St", "lat": 39.17175158, "year": 1955, "description": null, "name": "1901 E. 10th St."}, {"architects": null, "category": "Student Acad Ctr", "floors": "05", "id": "BL316", "lng": -86.50868104, "bld_code": "CU", "address": "408 N Union St", "lat": 39.16907251, "year": 1991, "description": null, "name": "Student Services"}, {"architects": null, "category": "ambulance service", "floors": "01", "id": "BL318", "lng": -86.50853938, "bld_code": "", "address": "2045 E 7th St", "lat": 39.16841519, "year": 2002, "description": null, "name": "2045 E 7th St"}, {"architects": null, "category": "rental", "floors": "02", "id": "BL319A", "lng": -86.50915967, "bld_code": "", "address": "318 N Union St", "lat": 39.16876078, "year": 0, "description": null, "name": "318 N Union St"}, {"architects": null, "category": "Theatre & Drama", "floors": "02", "id": "BL320", "lng": -86.50903559, "bld_code": "TA", "address": "306 N Union St", "lat": 39.16845573, "year": 1956, "description": null, "name": "306 N Union St"}, {"architects": null, "category": "rental", "floors": "03", "id": "BL322C", "lng": -86.50938789, "bld_code": "", "address": "2020 E 3rd St", "lat": 39.16406523, "year": 1945, "description": null, "name": "2020 E. 3rd St."}, {"architects": null, "category": "rental", "floors": "02", "id": "BL323B", "lng": -86.50919989, "bld_code": "", "address": "117 S Union St", "lat": 39.16608329, "year": 1927, "description": null, "name": "117 S. Union St."}, {"architects": null, "category": "rental", "floors": "03", "id": "BL324A", "lng": -86.50852973, "bld_code": "", "address": "120 S Bryan Ave", "lat": 39.1657229, "year": 1930, "description": null, "name": "120 S. Bryan Ave."}, {"architects": null, "category": "rental", "floors": "02", "id": "BL324B", "lng": -86.50858267, "bld_code": "", "address": "118 S Bryan Ave", "lat": 39.16587597, "year": 1930, "description": null, "name": "118 S. Bryan Ave."}, {"architects": null, "category": "rental", "floors": "02", "id": "BL324G", "lng": -86.50853284, "bld_code": "", "address": "102 S Bryan Ave", "lat": 39.1666824, "year": 1932, "description": null, "name": "102 S. Bryan Ave."}, {"architects": null, "category": "rental", "floors": "02", "id": "BL324H", "lng": -86.50853069, "bld_code": "", "address": "104 S Bryan Ave", "lat": 39.16655149, "year": 1927, "description": null, "name": "104 S. Bryan Ave."}, {"architects": null, "category": "rental", "floors": "02", "id": "BL324N", "lng": -86.50856022, "bld_code": "", "address": "113 N Bryan Ave", "lat": 39.16734866, "year": 1950, "description": null, "name": "113 N. Bryan Ave."}, {"architects": null, "category": "rental", "floors": "03", "id": "BL324R", "lng": -86.50857269, "bld_code": "", "address": "121 N Bryan Ave", "lat": 39.16773015, "year": 1949, "description": null, "name": "121 N. Bryan Ave."}, {"architects": null, "category": "Org. American Historians", "floors": "04", "id": "BL324V", "lng": -86.50780263, "bld_code": "", "address": "112 N Bryan Ave", "lat": 39.16734966, "year": 1850, "description": null, "name": "Raintree House"}, {"architects": null, "category": "", "floors": "02", "id": "BL324W", "lng": -86.50856288, "bld_code": "", "address": "111 N Bryan Ave", "lat": 39.16721199, "year": 1950, "description": null, "name": "111 N. Bryan Ave."}, {"architects": null, "category": "rental", "floors": "03", "id": "BL327H", "lng": -86.50772833, "bld_code": "", "address": "2105 E 3rd St", "lat": 39.16446948, "year": 1948, "description": null, "name": "2105 E. 3rd St."}, {"architects": "", "category": "Possible swing space", "floors": "02", "id": "BL327J", "lng": -86.503871, "bld_code": "", "address": "2427 E 2nd St", "lat": 39.161762, "year": 1955, "description": null, "name": "2427 E 2nd St"}, {"architects": null, "category": "rental", "floors": "01", "id": "BL399C", "lng": -86.52763782, "bld_code": "", "address": "506 E 14th St", "lat": 39.17591297, "year": 1940, "description": null, "name": "506 E. 14th St."}, {"architects": "A.M. Strauss", "category": "Apartments", "floors": "05", "id": "BL401", "lng": -86.52613959, "bld_code": "HK", "address": "611 N Fess Ave/674 E Cottage Grove Ave", "lat": 39.17216754, "year": 1950, "description": null, "name": "Hillcrest Apartments"}, {"architects": null, "category": "rental", "floors": "02", "id": "BL401A", "lng": -86.52420947, "bld_code": "", "address": "822 E Cottage Grove Ave", "lat": 39.17235302, "year": 1925, "description": null, "name": "822 E. Cottage Grove Ave."}, {"architects": null, "category": "Informatics Graduate House", "floors": "03", "id": "BL401B", "lng": -86.52397323, "bld_code": "", "address": "815 E 10th St", "lat": 39.17181661, "year": 1925, "description": null, "name": "815 E. 10th St."}, {"architects": null, "category": "Asian Culture Center", "floors": "04", "id": "BL401C", "lng": -86.52426711, "bld_code": "A3", "address": "807 E 10th St", "lat": 39.17182329, "year": 1924, "description": null, "name": "807 E. 10th / Asian Culture Center"}, {"architects": null, "category": "rental", "floors": "04", "id": "BL401D", "lng": -86.52416482, "bld_code": "", "address": "809 E 10th St", "lat": 39.17199437, "year": 1920, "description": null, "name": "809 E.10th St."}, {"architects": null, "category": "rental", "floors": "03", "id": "BL401E", "lng": -86.52445699, "bld_code": "", "address": "801 E 10th St", "lat": 39.17182128, "year": 1915, "description": null, "name": "801 E.10th St."}, {"architects": null, "category": "rental", "floors": "03", "id": "BL401F", "lng": -86.52396907, "bld_code": "", "address": "824 E Cottage Grove Ave", "lat": 39.17237826, "year": 1931, "description": null, "name": "824 E. Cottage Grove Ave."}, {"architects": null, "category": "Informatics Ethos House", "floors": "03", "id": "BL401G", "lng": -86.52370974, "bld_code": "", "address": "611 N Woodlawn Ave", "lat": 39.17217779, "year": 1925, "description": null, "name": "611 N. Woodlawn Ave."}, {"architects": null, "category": "rental", "floors": "03", "id": "BL401H", "lng": -86.52423404, "bld_code": "", "address": "805 E Cottage Grove Ave", "lat": 39.1727328, "year": 0, "description": null, "name": "805 E. Cottage Grove Avenue"}, {"architects": null, "category": "rental", "floors": "01", "id": "BL401J", "lng": -86.52398721, "bld_code": "", "address": "824.5 E Cottage Grove Ave", "lat": 39.17216109, "year": 1940, "description": null, "name": "824.5 E Cottage Grove Ave"}, {"architects": null, "category": "rental", "floors": "03", "id": "BL401R", "lng": -86.52485686, "bld_code": "", "address": "721 N Park", "lat": 39.17329856, "year": 1920, "description": null, "name": "721 N Park Ave"}, {"architects": null, "category": "Informatics Undergrad House", "floors": "03", "id": "BL401Z", "lng": -86.5237182, "bld_code": "", "address": "821 E 10th St", "lat": 39.17182508, "year": 1915, "description": null, "name": "821 E. 10th St."}, {"architects": null, "category": "rental", "floors": "02", "id": "BL402B", "lng": -86.52678271, "bld_code": "", "address": "1020 N Indiana Ave", "lat": 39.17600381, "year": 1910, "description": null, "name": "1020 N. Indiana Ave."}, {"architects": null, "category": "rental", "floors": "02", "id": "BL402I", "lng": -86.52682923, "bld_code": "", "address": "1114 N Indiana Ave", "lat": 39.17685681, "year": 1925, "description": null, "name": "1114 N. Indiana Ave."}, {"architects": null, "category": "storage", "floors": "01", "id": "BL402N", "lng": -86.52675079, "bld_code": "", "address": "1000 N Indiana Ave", "lat": 39.17562971, "year": 1979, "description": null, "name": "1000 N Indiana Avenue"}, {"architects": null, "category": "rentals storage", "floors": "01", "id": "BL402P", "lng": -86.52651051, "bld_code": "", "address": "603 E 12th St", "lat": 39.17474448, "year": 1920, "description": null, "name": "603 E 12th St-Garage"}, {"architects": null, "category": "rental", "floors": "02", "id": "BL402Q", "lng": -86.52635738, "bld_code": "", "address": "615 E 13th St", "lat": 39.17542565, "year": 1920, "description": null, "name": "615 E. 13th St."}, {"architects": null, "category": "rental", "floors": "02", "id": "BL402R", "lng": -86.52683359, "bld_code": "", "address": "1112 N Indiana Ave", "lat": 39.17667477, "year": 1930, "description": null, "name": "1112 N. Indiana Ave."}, {"architects": null, "category": "rental", "floors": "02", "id": "BL402S", "lng": -86.52603796, "bld_code": "", "address": "623 E 13th St", "lat": 39.17541756, "year": 1890, "description": null, "name": "623 E. 13th St."}, {"architects": null, "category": "life estate", "floors": "03", "id": "BL403B", "lng": -86.52327395, "bld_code": "", "address": "901 E Cottage Grove Ave", "lat": 39.17272438, "year": 1950, "description": null, "name": "901 E. Cottage Grove Ave."}, {"architects": "Edward D. James", "category": "residence hall", "floors": "03", "id": "BL404A", "lng": -86.52283625, "bld_code": "BR", "address": "767 N Forrest Ave", "lat": 39.17320747, "year": 1961, "description": null, "name": "Brown Hall (Collins Living-Learning Center)"}, {"architects": "Edward D. James", "category": "residence hall", "floors": "04", "id": "BL404B", "lng": -86.522665, "bld_code": "GH", "address": "735 N Forrest Ave", "lat": 39.17287705, "year": 1961, "description": null, "name": "Greene Hall (Collins Living-Learning Center)"}, {"architects": null, "category": "Fine Arts", "floors": "01", "id": "BL404C", "lng": -86.52299021, "bld_code": "MW", "address": "757 N Forrest Ave", "lat": 39.17295187, "year": 1961, "description": null, "name": "Monroe Hall"}, {"architects": "James & Associates", "category": "Fine Arts", "floors": "04", "id": "BL404D", "lng": -86.52325923, "bld_code": "MR", "address": "909 E 11th St", "lat": 39.17312425, "year": 1962, "description": null, "name": "Morgan Hall"}, {"architects": null, "category": "", "floors": "01", "id": "BL405", "lng": -86.52271333, "bld_code": "", "address": "819 N Forrest Ave", "lat": 39.17394225, "year": 1978, "description": null, "name": "Research Service Building"}, {"architects": null, "category": "Geological Survey", "floors": "02", "id": "BL405D", "lng": -86.52279043, "bld_code": "GM", "address": "915 E 11th St", "lat": 39.17367958, "year": 1890, "description": null, "name": "Geological Materials Testing"}, {"architects": null, "category": "Journalism", "floors": "03", "id": "BL405G", "lng": -86.52370162, "bld_code": "JA", "address": "321 N Woodlawn Ave", "lat": 39.16925967, "year": 1925, "description": null, "name": "321 N. Woodlawn Ave."}, {"architects": null, "category": "maintenance shop", "floors": "01", "id": "BL405H", "lng": -86.52520359, "bld_code": "", "address": "712 E 12th St", "lat": 39.17393385, "year": 0, "description": null, "name": "712 E 12th St-Garage"}, {"architects": null, "category": "Geological Survey Core Library", "floors": "01", "id": "BL406", "lng": -86.52390201, "bld_code": "CO", "address": "822 E 12th St", "lat": 39.17416624, "year": 1977, "description": null, "name": "Geological Survey Core Library"}, {"architects": null, "category": "rental", "floors": "02", "id": "BL406E", "lng": -86.52394136, "bld_code": "", "address": "821 E 11th St", "lat": 39.17359764, "year": 1925, "description": null, "name": "821 E. 11th St."}, {"architects": null, "category": "rental", "floors": "03", "id": "BL406J", "lng": -86.52565346, "bld_code": "", "address": "703 E 11th St", "lat": 39.17360324, "year": 1945, "description": null, "name": "703 E. 11th St."}, {"architects": null, "category": "rental", "floors": "01", "id": "BL406K", "lng": -86.525361, "bld_code": "", "address": "707 E 11th St", "lat": 39.17361429, "year": 1920, "description": null, "name": "707 E. 11th St."}, {"architects": null, "category": "rental", "floors": "03", "id": "BL406M", "lng": -86.52399241, "bld_code": "", "address": "815 E Cottage Grove Ave", "lat": 39.17273908, "year": 1925, "description": null, "name": "815 E. Cottage Grove Ave"}, {"architects": null, "category": "rental", "floors": "02", "id": "BL406N", "lng": -86.52512242, "bld_code": "", "address": "715 E 11th St", "lat": 39.17361682, "year": 1911, "description": null, "name": "715 E. 11th St."}, {"architects": null, "category": "Geological Survey storage", "floors": "01", "id": "BL406R", "lng": -86.52448462, "bld_code": "", "address": "828 N Park Ave", "lat": 39.17417796, "year": 1925, "description": null, "name": "828 N. Park Ave."}, {"architects": null, "category": "rental", "floors": "03", "id": "BL406T", "lng": -86.52486926, "bld_code": "", "address": "813 N Park Ave", "lat": 39.1738195, "year": 1920, "description": null, "name": "813 N. Park Ave."}, {"architects": "W.M. J. Strain", "category": "Alumni Association", "floors": "03", "id": "BL407", "lng": -86.52181159, "bld_code": "AM", "address": "1000 E 17th St", "lat": 39.17872496, "year": 1963, "description": "The DeVault Alumni Center is the central headquarters for all IU alumni. In addition to offices and meeting spaces for alumni, the IU Alumni Association, and the Student Alumni Association, the center has a 90-seat dining room and an outdoor plaza for entertaining.", "name": "Virgil T. DeVault Alumni Center"}, {"architects": null, "category": "rental", "floors": "02", "id": "BL407L", "lng": -86.52335615, "bld_code": "", "address": "1104 N Woodlawn Ave", "lat": 39.1764787, "year": 1922, "description": null, "name": "1104 N. Woodlawn Ave."}, {"architects": null, "category": "rental", "floors": "02", "id": "BL407M", "lng": -86.52337427, "bld_code": "", "address": "1106 N Woodlawn Ave", "lat": 39.17662832, "year": 1930, "description": null, "name": "1106 N. Woodlawn Ave."}, {"architects": null, "category": "Fine Art and Facility Op", "floors": "01", "id": "BL409", "lng": -86.52415134, "bld_code": "AZ", "address": "802 E 13th St", "lat": 39.17494301, "year": 1989, "description": null, "name": "Fine Arts Studio Building"}, {"architects": null, "category": "rental", "floors": "02", "id": "BL409D", "lng": -86.52336025, "bld_code": "", "address": "1202 N Woodlawn Ave", "lat": 39.17722003, "year": 1900, "description": null, "name": "1202 N. Woodlawn Ave."}, {"architects": null, "category": "Campus Division", "floors": "02", "id": "BL409R", "lng": -86.52334591, "bld_code": "", "address": "901 E 13th St", "lat": 39.17537596, "year": 1948, "description": null, "name": "901 E. 13th St."}, {"architects": null, "category": "rental", "floors": "03", "id": "BL409T", "lng": -86.52339259, "bld_code": "", "address": "1216 N Woodlawn Ave", "lat": 39.17765108, "year": 1920, "description": null, "name": "1216 N. Woodlawn Ave."}, {"architects": null, "category": "Campus Division", "floors": "01", "id": "BL409U", "lng": -86.52337617, "bld_code": "", "address": "901 N Woodlawn Ave", "lat": 39.17557192, "year": 1948, "description": null, "name": "901 N. Woodlawn Ave."}, {"architects": null, "category": "rental", "floors": "03", "id": "BL409V", "lng": -86.52662276, "bld_code": "", "address": "607 E 13th St", "lat": 39.17542033, "year": 1920, "description": null, "name": "607 E. 13th St."}, {"architects": null, "category": "R House 4/2010", "floors": "02", "id": "BL409W", "lng": -86.52271213, "bld_code": "", "address": "919 E 13th St", "lat": 39.17542819, "year": 1950, "description": null, "name": "919 E. 13th St."}, {"architects": null, "category": "rental", "floors": "02", "id": "BL410J", "lng": -86.52605085, "bld_code": "", "address": "829 N Fess Ave", "lat": 39.17396949, "year": 1930, "description": null, "name": "829 N. Fess Avenue"}, {"architects": null, "category": "rental", "floors": "02", "id": "BL410R", "lng": -86.5228855, "bld_code": "", "address": "905 E 14th St", "lat": 39.17619584, "year": 1928, "description": null, "name": "905 E. 14th St."}, {"architects": null, "category": "rental", "floors": "02", "id": "BL410S", "lng": -86.52260597, "bld_code": "", "address": "913 E 14th St", "lat": 39.1761723, "year": 1928, "description": null, "name": "913 E. 14th St."}, {"architects": null, "category": "rental", "floors": "02", "id": "BL410U", "lng": -86.52288383, "bld_code": "", "address": "908 E 14th St", "lat": 39.17588686, "year": 1950, "description": null, "name": "908 E. 14th St."}, {"architects": null, "category": "rental", "floors": "01", "id": "BL410V", "lng": -86.5228007, "bld_code": "", "address": "908 E 14th St", "lat": 39.17577979, "year": 1950, "description": null, "name": "908 E. 14th St."}, {"architects": null, "category": "chilled water plant", "floors": "02", "id": "BL411", "lng": -86.52291322, "bld_code": "X1", "address": "920 E 13th St", "lat": 39.17493764, "year": 1970, "description": null, "name": "Central Chilled Water Plant"}, {"architects": null, "category": "Speech & Hearing", "floors": "01", "id": "BL411B", "lng": -86.5222852, "bld_code": "", "address": "1004 E 13th St", "lat": 39.17466336, "year": 1955, "description": null, "name": "Echo Chamber"}, {"architects": null, "category": "Speech & Hearing", "floors": "01", "id": "BL411C", "lng": -86.52228732, "bld_code": "", "address": "1004 E 13th St", "lat": 39.17460329, "year": 1954, "description": null, "name": "Anechoic Lab"}, {"architects": null, "category": "Psychology", "floors": "03", "id": "BL411E", "lng": -86.52202329, "bld_code": "", "address": "1010 E 13th St", "lat": 39.17494046, "year": 1925, "description": null, "name": "1010 E. 13th St."}, {"architects": null, "category": "Psychology", "floors": "01", "id": "BL411J", "lng": -86.52223665, "bld_code": "", "address": "Behavior Lab", "lat": 39.17484499, "year": 1956, "description": null, "name": "Behavior Lab"}, {"architects": null, "category": "Psychology research", "floors": "01", "id": "BL411M", "lng": -86.52203561, "bld_code": "", "address": "1014 E 13th St", "lat": 39.17469151, "year": 2000, "description": null, "name": "Modular Lab"}, {"architects": "Edward D. James", "category": "Ceramics & Sculpture", "floors": "02", "id": "BL413", "lng": -86.52145012, "bld_code": "CS", "address": "1026 E 11th St", "lat": 39.17376468, "year": 1952, "description": null, "name": "Arts Annex"}, {"architects": "Edward D. James", "category": "Fine Arts", "floors": "02", "id": "BL413A", "lng": -86.52219311, "bld_code": "", "address": "830 N Forrest Ave", "lat": 39.17392248, "year": 1956, "description": null, "name": "Graduate Printmaking"}, {"architects": "Edward D. Pierre", "category": "Informatics", "floors": "04", "id": "BL414", "lng": -86.52316284, "bld_code": "I", "address": "901 E 10th St", "lat": 39.17198002, "year": 1954, "description": null, "name": "Informatics West"}, {"architects": null, "category": "maintenance shop", "floors": "02", "id": "BL414C", "lng": -86.52627941, "bld_code": "", "address": "607 E 12th St", "lat": 39.17451316, "year": 1950, "description": null, "name": "607 E. 12th St."}, {"architects": null, "category": "Informatics", "floors": "02", "id": "BL414D", "lng": -86.52628359, "bld_code": "", "address": "608 E 12th St", "lat": 39.17416794, "year": 1925, "description": null, "name": "608 E. 12th St."}, {"architects": "Daggett,Naegle & Daggett", "category": "Geology/Psychology/SPEA", "floors": "09", "id": "BL417", "lng": -86.52180696, "bld_code": "GY", "address": "1001 E 10th St", "lat": 39.17195577, "year": 1962, "description": null, "name": "Geological Sciences"}, {"architects": "Daggett,Naegle & Daggett", "category": "Geological Survey", "floors": "08", "id": "BL418", "lng": -86.52180696, "bld_code": "GS", "address": "611 N Walnut Grove Ave", "lat": 39.17195577, "year": 1964, "description": null, "name": "Geological Survey"}, {"architects": "A.M. Strauss", "category": "Psychology", "floors": "06", "id": "BL419", "lng": -86.52022729, "bld_code": "PY", "address": "1101 E 10th St", "lat": 39.17206881, "year": 1963, "description": "Home to the oldest continuing psychology laboratory in America, IU opened the Psychology Building in 1964. Its 20 laboratories support research in the Department of Psychological and Brain Sciences and include \u201cwet labs\u201d for organic research and an interior environment that can isolate sound and control outside stimuli.", "name": "Psychology"}, {"architects": null, "category": "rental", "floors": "01", "id": "BL420F", "lng": -86.52635561, "bld_code": "", "address": "615 E 14th St", "lat": 39.1762423, "year": 1925, "description": null, "name": "615 E. 14th St."}, {"architects": null, "category": "rental", "floors": "01", "id": "BL420G", "lng": -86.52616629, "bld_code": "", "address": "1103 N Fess Ave", "lat": 39.17657967, "year": 1940, "description": null, "name": "1103 N. Fess Ave."}, {"architects": null, "category": "rental", "floors": "01", "id": "BL420J", "lng": -86.52620771, "bld_code": "", "address": "1201 N Fess Ave", "lat": 39.17696223, "year": 1953, "description": null, "name": "1201 N. Fess Ave."}, {"architects": "FLAD & Associates", "category": "", "floors": "07", "id": "BL423", "lng": -86.52066799, "bld_code": "S2", "address": "702 N Walnut Grove Ave", "lat": 39.17287077, "year": 2009, "description": null, "name": "Multidisciplinary Science Building II"}, {"architects": null, "category": "", "floors": "01", "id": "BL425C", "lng": -86.52043075, "bld_code": "", "address": "880 N Walnut Grove Ave", "lat": 39.17426679, "year": 1956, "description": null, "name": "Switching Center"}, {"architects": "James & Associates", "category": "residence hall", "floors": "13", "id": "BL433", "lng": -86.51984434, "bld_code": "BQ", "address": "1225 N Fee Ln", "lat": 39.17836912, "year": 1965, "description": null, "name": "Briscoe Quadrangle"}, {"architects": "Edward D. James", "category": "residence hall", "floors": "06", "id": "BL437", "lng": -86.51977707, "bld_code": "", "address": "1101 N Fee Ln", "lat": 39.17718634, "year": 1964, "description": null, "name": "McNutt North Quadrangle"}, {"architects": "Edward D. James", "category": "residence dining", "floors": "04", "id": "BL439", "lng": -86.51946012, "bld_code": "MN", "address": "1101 N Fee Ln", "lat": 39.17641476, "year": 1963, "description": null, "name": "McNutt Central Quadrangle"}, {"architects": "Edward D. James", "category": "residence hall", "floors": "05", "id": "BL441", "lng": -86.51982362, "bld_code": "", "address": "1101 N Fee Ln", "lat": 39.17565571, "year": 1963, "description": null, "name": "McNutt South Quadrangle"}, {"architects": "Sargent & Lundy Engineers", "category": "silo/storage", "floors": "08", "id": "BL445", "lng": -86.52016237, "bld_code": "PW", "address": "820 N Walnut Grove Ave", "lat": 39.17363722, "year": 1954, "description": null, "name": "Central Heating Plant / Power Plant"}, {"architects": null, "category": "trailer", "floors": "01", "id": "BL445A", "lng": -86.50558412, "bld_code": "", "address": "2222 E 10th St", "lat": 39.17104934, "year": 1981, "description": null, "name": "Trailer"}, {"architects": "Beyer Blinder Belle Architects", "category": "academic", "floors": "05", "id": "BL450", "lng": -86.5193985, "bld_code": "CG", "address": "1275 E 10th St", "lat": 39.17244705, "year": 2000, "description": null, "name": "William J. Godfrey Graduate and Executive Education Center"}, {"architects": "Beine Hall & Curran Inc.", "category": "Kelley School of Business", "floors": "08", "id": "BL451", "lng": -86.51837451, "bld_code": "HH", "address": "1309 E 10th St", "lat": 39.17236649, "year": 1966, "description": "The business school was renamed in 1997 after alumnus E.W. Kelley. In 2003,  the Kelley school added the Godfrey Graduate and Executive Education Center, which features elegant limestone and oak architecture, every imaginable technological advantage, and a two-story limestone walkway that connects to the original undergraduate building.", "name": "Hodge Hall (Kelley School of Business)"}, {"architects": "Ellerbe", "category": "SPEA & library", "floors": "05", "id": "BL452", "lng": -86.51766721, "bld_code": "PV", "address": "1315 E 10th St", "lat": 39.17250139, "year": 1982, "description": null, "name": "SPEA  / Public and Environmental Affairs, School of"}, {"architects": "Edward D. James", "category": "residence hall", "floors": "11", "id": "BL453", "lng": -86.5180439, "bld_code": "HQ", "address": "1000 N Fee Ln", "lat": 39.17509739, "year": 1962, "description": null, "name": "Harper Hall (Foster Quadrangle)"}, {"architects": "Edward D. James", "category": "residence dining", "floors": "03", "id": "BL454", "lng": -86.51828181, "bld_code": "GR", "address": "1000 N Fee Ln", "lat": 39.1743202, "year": 1962, "description": null, "name": "Gresham Dining Hall (Foster Quadrangle)"}, {"architects": "Edward D. James", "category": "residence hall", "floors": "06", "id": "BL455", "lng": -86.51846641, "bld_code": "SH", "address": "1000 N Fee Ln", "lat": 39.17587114, "year": 1962, "description": null, "name": "Shea Hall (Foster Quadrangle)"}, {"architects": "Edward D. James", "category": "residence hall", "floors": "05", "id": "BL456", "lng": -86.51783954, "bld_code": "FQ", "address": "1000 N Fee Ln", "lat": 39.175868, "year": 1962, "description": null, "name": "Martin Hall (Foster Quadrangle)"}, {"architects": "Edward D. James", "category": "residence hall", "floors": "05", "id": "BL461", "lng": -86.51721066, "bld_code": "RU", "address": "1000 N Fee Ln", "lat": 39.17586677, "year": 1962, "description": null, "name": "Magee Hall (Foster Quadrangle)"}, {"architects": "Edward D. James", "category": "residence hall", "floors": "05", "id": "BL462", "lng": -86.51711071, "bld_code": "IS", "address": "1000 N Fee Ln", "lat": 39.17511303, "year": 1962, "description": null, "name": "Jenkinson Hall (Foster Quadrangle)"}, {"architects": "Eggers & Higgins", "category": "RPS Administration", "floors": "03", "id": "BL463", "lng": -86.51598848, "bld_code": "HL", "address": "801 N Jordan Ave", "lat": 39.17382556, "year": 1962, "description": null, "name": "Division of Residential Programs and Services"}, {"architects": null, "category": "Career Development", "floors": "04", "id": "BL465B", "lng": -86.51597578, "bld_code": "PC", "address": "625 N Jordan Ave", "lat": 39.17237925, "year": 1940, "description": null, "name": "Career Development Center"}, {"architects": null, "category": "Wells House", "floors": "04", "id": "BL465C", "lng": -86.51689673, "bld_code": "", "address": "1321 E 10th St", "lat": 39.17240301, "year": 1940, "description": "Herman B Wells purchased the house at the close of his tenure as IU president. He lived there during his 38 years as chancellor, and bequeathed the house to IU upon his death. The Wells House contains artifacts from his life and is used as a setting for celebrations.", "name": "Wells House"}, {"architects": null, "category": "School of Business", "floors": "04", "id": "BL465D", "lng": -86.51718271, "bld_code": "", "address": "1319 E 10th St", "lat": 39.17237969, "year": 1940, "description": null, "name": "1319 E 10th St"}, {"architects": null, "category": "Wells Scholars", "floors": "01", "id": "BL465E", "lng": -86.51658945, "bld_code": "HS", "address": "1331 E 10th St", "lat": 39.17244769, "year": 1940, "description": null, "name": "Wells Scholars"}, {"architects": null, "category": "rental", "floors": "01", "id": "BL465F", "lng": -86.51624021, "bld_code": "", "address": "1357 E 10th St", "lat": 39.17239863, "year": 1940, "description": null, "name": "1357 E. 10th St."}, {"architects": "Eggers & Higgins", "category": "Health Center", "floors": "06", "id": "BL467", "lng": -86.51512927, "bld_code": "HC", "address": "600 N Jordan Ave", "lat": 39.17210541, "year": 1965, "description": null, "name": "Indiana University Health Center"}, {"architects": null, "category": "parking booth", "floors": "01", "id": "BL467P", "lng": -86.51517368, "bld_code": "", "address": "600 N Jordan Ave", "lat": 39.17249885, "year": 2004, "description": null, "name": "Health Center Parking Booth"}, {"architects": "Edward Larrabee Barnes & John M.Y. Lee", "category": "Recreational Sports", "floors": "04", "id": "BL475", "lng": -86.51241486, "bld_code": "RB", "address": "1601 E Law Ln", "lat": 39.17352548, "year": 1992, "description": "The 204,000-square-foot SRSC complex is one of the nation\u2019s top recreational sports facilities. It offers multipurpose gyms, an indoor running track, a cycle-fit studio, free-weights, more than 400 pieces of exercise equipment\u2014and courts for basketball, volleyball, tennis, racquetball, and squash. Registered students are automatically members.", "name": "Student Recreational Sports Center"}, {"architects": null, "category": "pumphouse", "floors": "01", "id": "BL489", "lng": -86.51042204, "bld_code": "", "address": "1511 E 17th St", "lat": 39.17837116, "year": 1955, "description": null, "name": "Rogers HL Elev. Pump"}, {"architects": null, "category": "storage", "floors": "02", "id": "BL490", "lng": -86.51066285, "bld_code": "", "address": "1630 E 17th St", "lat": 39.17776914, "year": 1940, "description": null, "name": "Facility Operations Storage"}, {"architects": "Edward D. James", "category": "residence hall", "floors": "02", "id": "BL493", "lng": -86.5108832, "bld_code": "BN", "address": "1101 N Union St", "lat": 39.1754223, "year": 1955, "description": null, "name": "Hepburn Apartments"}]