[{"address": "702 E 3rd St", "description": null, "id": "BL990A", "name": "Acacia", "year": 0, "category": "", "bld_code": "1", "architects": null, "floors": "01", "lat": 39.16387615, "lng": -86.52554064}, {"address": "720 E 3rd St", "description": null, "id": "BL990B", "name": "Phi Sigma Kappa", "year": 0, "category": "", "bld_code": "4", "architects": null, "floors": "01", "lat": 39.16383257, "lng": -86.52487519}, {"address": "631 E 3rd St", "description": null, "id": "BL990C", "name": "Phi Gamma Delta", "year": 0, "category": "", "bld_code": "15", "architects": null, "floors": "01", "lat": 39.16464994, "lng": -86.5258271}, {"address": "818 E 3rd St", "description": null, "id": "BL990D", "name": "Delta Delta Delta", "year": 0, "category": "", "bld_code": "33", "architects": null, "floors": "01", "lat": 39.16379439, "lng": -86.52301497}, {"address": "908 E 3rd St", "description": null, "id": "BL990E", "name": "Alpha Phi", "year": 0, "category": "", "bld_code": "30", "architects": null, "floors": "01", "lat": 39.16388936, "lng": -86.52232639}, {"address": "928 E 3rd St", "description": null, "id": "BL990F", "name": "Pi Beta Phi", "year": 0, "category": "", "bld_code": "41", "architects": null, "floors": "01", "lat": 39.16383008, "lng": -86.52135486}, {"address": "1018 E 3rd St", "description": null, "id": "BL990H", "name": "Kappa Kappa Gamma", "year": 0, "category": "", "bld_code": "39", "architects": null, "floors": "01", "lat": 39.16379299, "lng": -86.52056105}, {"address": "1200 E 3rd St", "description": null, "id": "BL990J", "name": "Delta Upsilon", "year": 0, "category": "", "bld_code": "9", "architects": null, "floors": "01", "lat": 39.16371711, "lng": -86.51884149}, {"address": "1210 E 3rd St", "description": null, "id": "BL990K", "name": "Lambda Chi Alpha", "year": 0, "category": "", "bld_code": "13", "architects": null, "floors": "01", "lat": 39.16373911, "lng": -86.51836633}, {"address": "105 N Jordan Ave", "description": null, "id": "BL990M", "name": "Delta Gamma", "year": 0, "category": "", "bld_code": "34", "architects": null, "floors": "01", "lat": 39.1673541, "lng": -86.51663725}, {"address": "441 N Woodlawn Ave", "description": null, "id": "BL990N", "name": "Kappa Alpha Theta", "year": 0, "category": "", "bld_code": "37", "architects": null, "floors": "01", "lat": 39.17020612, "lng": -86.52396812}, {"address": "919 E 10th St", "description": "The Informatics East and Informatics West buildings and the new building that connects them form a 72,000-square-foot complex with the latest in modern classroom technology, befitting the first IT school of its kind. A fully wired courtyard allows students to plug in and power up between classes.", "id": "BL990P", "name": "Informatics East", "year": 1927, "category": "Informatics", "bld_code": "I2", "architects": "CSO Schenkel Schultz", "floors": "05", "lat": 39.17202416, "lng": -86.52274137}, {"address": "815 N Jordan Ave", "description": null, "id": "BL990Q", "name": "Sigma Phi Epsilon", "year": 0, "category": "", "bld_code": "6", "architects": null, "floors": "01", "lat": 39.17434751, "lng": -86.51552772}, {"address": "1005 N Jordan Ave", "description": null, "id": "BL990R", "name": "Kappa Delta", "year": 0, "category": "", "bld_code": "38", "architects": null, "floors": "01", "lat": 39.17501809, "lng": -86.51499283}, {"address": "1000 N Jordan Ave", "description": null, "id": "BL990S", "name": "Alpha Chi Omega", "year": 0, "category": "", "bld_code": "25", "architects": null, "floors": "01", "lat": 39.1747326, "lng": -86.51387654}, {"address": "1020 N Jordan Ave", "description": null, "id": "BL990T", "name": "Zeta Tau Alpha", "year": 0, "category": "", "bld_code": "43", "architects": null, "floors": "01", "lat": 39.175375, "lng": -86.51330277}, {"address": "1015 N Jordan Ave", "description": null, "id": "BL990U", "name": "Sigma Nu", "year": 0, "category": "", "bld_code": "21", "architects": null, "floors": "01", "lat": 39.17572524, "lng": -86.5144469}, {"address": "1075 N Jordan Ave", "description": null, "id": "BL990V", "name": "Evans Scholars", "year": 0, "category": "", "bld_code": "", "architects": null, "floors": "01", "lat": 39.17635562, "lng": -86.51397267}, {"address": "1100 N Jordan Ave", "description": null, "id": "BL990X", "name": "1100 N Jordan", "year": 1965, "category": "", "bld_code": "7", "architects": null, "floors": "01", "lat": 39.17611211, "lng": -86.51255493}, {"address": "1469 E 17th St", "description": null, "id": "BL990Y", "name": "IU Police Department", "year": 1965, "category": "IUPD", "bld_code": "PD", "architects": null, "floors": "03", "lat": 39.17927531, "lng": -86.51337032}, {"address": "1110 N Jordan Ave", "description": null, "id": "BL990Z", "name": "Alpha Epsilon Phi", "year": 0, "category": "", "bld_code": "27", "architects": null, "floors": "01", "lat": 39.17672913, "lng": -86.51221412}, {"address": "1215 N Jordan Ave", "description": null, "id": "BL991B", "name": "Phi Delta Theta", "year": 0, "category": "", "bld_code": "14", "architects": null, "floors": "01", "lat": 39.17734285, "lng": -86.51302572}, {"address": "1200 N Jordan Ave", "description": null, "id": "BL991C", "name": "Alpha Gamma Delta", "year": 0, "category": "", "bld_code": "16", "architects": null, "floors": "01", "lat": 39.17762586, "lng": -86.51180704}, {"address": "1305 N Jordan Ave", "description": null, "id": "BL991D", "name": "Gamma Phi Beta", "year": 0, "category": "", "bld_code": "36", "architects": null, "floors": "01", "lat": 39.17807806, "lng": -86.51296979}, {"address": "1314 N Jordan Ave", "description": null, "id": "BL991E", "name": "1314 N Jordan Ave-AGD", "year": 0, "category": "", "bld_code": "28", "architects": null, "floors": "01", "lat": 39.17827987, "lng": -86.51186342}, {"address": "1400 N Jordan Ave", "description": null, "id": "BL991F", "name": "Phi Kappa Sigma", "year": 0, "category": "", "bld_code": "17", "architects": null, "floors": "01", "lat": 39.17918404, "lng": -86.51030618}, {"address": "1410 N Jordan Ave", "description": null, "id": "BL991G", "name": "Sigma Delta Tau", "year": 0, "category": "", "bld_code": "42", "architects": null, "floors": "01", "lat": 39.17989573, "lng": -86.51037}, {"address": "1412 N Jordan Ave", "description": null, "id": "BL991H", "name": "Alpha Epsilon Pi", "year": 0, "category": "", "bld_code": "2", "architects": null, "floors": "01", "lat": 39.18048721, "lng": -86.51039172}, {"address": "1414 N Jordan Ave", "description": null, "id": "BL991J", "name": "Chi Omega", "year": 0, "category": "", "bld_code": "32", "architects": null, "floors": "01", "lat": 39.18099905, "lng": -86.51049994}, {"address": "1411 N Jordan Ave", "description": null, "id": "BL991K", "name": "Kappa Sigma", "year": 0, "category": "", "bld_code": "12", "architects": null, "floors": "01", "lat": 39.18059831, "lng": -86.51164506}, {"address": "1415 N Jordan Ave", "description": null, "id": "BL991M", "name": "Alpha Omicron Pi", "year": 0, "category": "", "bld_code": "29", "architects": null, "floors": "01", "lat": 39.18104787, "lng": -86.51179466}, {"address": "1430 N Jordan Ave", "description": null, "id": "BL991N", "name": "Sigma Pi", "year": 0, "category": "", "bld_code": "23", "architects": null, "floors": "01", "lat": 39.18167319, "lng": -86.51095955}, {"address": "1440 N Jordan Ave", "description": null, "id": "BL991P", "name": "Theta Chi", "year": 0, "category": "", "bld_code": "44", "architects": null, "floors": "01", "lat": 39.1820915, "lng": -86.51130354}, {"address": "1423 N Jordan Ave", "description": null, "id": "BL991Q", "name": "Delta Zeta", "year": 0, "category": "", "bld_code": "35", "architects": null, "floors": "01", "lat": 39.18149344, "lng": -86.51224606}, {"address": "1442 N Jordan Ave", "description": null, "id": "BL991R", "name": "Phi Mu", "year": 0, "category": "", "bld_code": "40", "architects": null, "floors": "01", "lat": 39.182591, "lng": -86.51169317}, {"address": "1431 N Jordan Ave", "description": null, "id": "BL991S", "name": "Delta Tau Delta", "year": 0, "category": "", "bld_code": "8", "architects": null, "floors": "01", "lat": 39.18184814, "lng": -86.51256972}, {"address": "1500 N Jordan Ave", "description": null, "id": "BL991T", "name": "Zeta Beta Tau", "year": 0, "category": "", "bld_code": "24", "architects": null, "floors": "01", "lat": 39.183015, "lng": -86.51275692}, {"address": "1640 N Jordan Ave", "description": null, "id": "BL991U", "name": "Gamma Kappa", "year": 0, "category": "", "bld_code": "45", "architects": null, "floors": "01", "lat": 39.18384381, "lng": -86.51408532}, {"address": "1720 N Jordan Ave", "description": null, "id": "BL991V", "name": "Pi Kappa Phi", "year": 0, "category": "", "bld_code": "18", "architects": null, "floors": "01", "lat": 39.18405898, "lng": -86.51475009}, {"address": "1818 N Jordan Ave", "description": null, "id": "BL991W", "name": "Alpha Xi Delta", "year": 0, "category": "", "bld_code": "31", "architects": null, "floors": "01", "lat": 39.18417135, "lng": -86.5164433}, {"address": "1968 N Jordan Ave", "description": null, "id": "BL991X", "name": "Christian Student Fellowship", "year": 0, "category": "", "bld_code": "", "architects": null, "floors": "01", "lat": 39.18419009, "lng": -86.51734366}, {"address": "2001 Fishers Ct", "description": null, "id": "BL991Y", "name": "Alpha Delta Pi", "year": 0, "category": "", "bld_code": "26", "architects": null, "floors": "01", "lat": 39.18488198, "lng": -86.5172402}, {"address": "601 E 7th St", "description": null, "id": "BL991Z", "name": "Sigma Chi", "year": 0, "category": "", "bld_code": "20", "architects": null, "floors": "01", "lat": 39.16878756, "lng": -86.52645413}]